[
  {
    "name": "hospital one name",
    "imageUrl": "../Data/un-used-Images/IMG_20221204_221524_882.jpg",
    "description": "Lorem ipsum dolor, sit amet consectetur adipisicing elit. Placeat vel molestias minus vitae numquam eveniet? Minus libero itaque quibusdam tempore eligendi quos, voluptas voluptatum rem ducimus harum facere a vitae!",
    "phone": "+12353245",
    "mail": "monsfd@gmail.com",
    "address": "Sit Molestiae Vitae Nam.",
    "facebook": "https://www.facebook.com/",
    "twitter": "https://www.twitter.com/",
    "location": "https://maps.google.com/",
    "phoneNumber": "tel:+18475555555",
    "whatsapp": "https://wa.me/552196312XXXX"
  },
  {
    "name": "hospital two name",
    "imageUrl": "../Data/un-used-Images/IMG_20221204_221446_131.jpg",
    "description": "Lorem ipsum dolor, sit amet consectetur adipisicing elit. Placeat vel molestias minus vitae numquam eveniet? Minus libero itaque quibusdam tempore eligendi quos, voluptas voluptatum rem ducimus harum facere a vitae!",
    "phone": "+12353245",
    "mail": "monsfd@gmail.com",
    "address": "Sit Molestiae Vitae Nam.",
    "facebook": "https://www.facebook.com/",
    "twitter": "https://www.twitter.com/",
    "location": "https://maps.google.com/",
    "phoneNumber": "tel:+18475555555",
    "whatsapp": "https://wa.me/552196312XXXX"
  },
  {
    "name": "hospital three name",
    "imageUrl": "../Data/un-used-Images/IMG_20221204_221446_842.jpg",
    "description": "Lorem ipsum dolor, sit amet consectetur adipisicing elit. Placeat vel molestias minus vitae numquam eveniet? Minus libero itaque quibusdam tempore eligendi quos, voluptas voluptatum rem ducimus harum facere a vitae!",
    "phone": "+12353245",
    "mail": "monsfd@gmail.com",
    "address": "Sit Molestiae Vitae Nam.",
    "facebook": "https://www.facebook.com/",
    "twitter": "https://www.twitter.com/",
    "location": "https://maps.google.com/",
    "phoneNumber": "tel:+18475555555",
    "whatsapp": "https://wa.me/552196312XXXX"
  },
  {
    "name": "hospital four name",
    "imageUrl": "../Data/un-used-Images/IMG_20221204_221528_346.jpg",
    "description": "Lorem ipsum dolor, sit amet consectetur adipisicing elit. Placeat vel molestias minus vitae numquam eveniet? Minus libero itaque quibusdam tempore eligendi quos, voluptas voluptatum rem ducimus harum facere a vitae!",
    "phone": "+12353245",
    "mail": "monsfd@gmail.com",
    "address": "Sit Molestiae Vitae Nam.",
    "facebook": "https://www.facebook.com/",
    "twitter": "https://www.twitter.com/",
    "location": "https://maps.google.com/",
    "phoneNumber": "tel:+18475555555",
    "whatsapp": "https://wa.me/552196312XXXX"
  },
  {
    "name": "hospital five name",
    "imageUrl": "../Data/un-used-Images/IMG_20221204_221534_192.jpg",
    "description": "Lorem ipsum dolor, sit amet consectetur adipisicing elit. Placeat vel molestias minus vitae numquam eveniet? Minus libero itaque quibusdam tempore eligendi quos, voluptas voluptatum rem ducimus harum facere a vitae!",
    "phone": "+12353245",
    "mail": "monsfd@gmail.com",
    "address": "Sit Molestiae Vitae Nam.",
    "facebook": "https://www.facebook.com/",
    "twitter": "https://www.twitter.com/",
    "location": "https://maps.google.com/",
    "phoneNumber": "tel:+18475555555",
    "whatsapp": "https://wa.me/552196312XXXX"
  },
  {
    "name": "hospital six name",
    "imageUrl": "../Data/un-used-Images/IMG_20221204_221446_131.jpg",
    "description": "Lorem ipsum dolor, sit amet consectetur adipisicing elit. Placeat vel molestias minus vitae numquam eveniet? Minus libero itaque quibusdam tempore eligendi quos, voluptas voluptatum rem ducimus harum facere a vitae!",
    "phone": "+12353245",
    "mail": "monsfd@gmail.com",
    "address": "Sit Molestiae Vitae Nam.",
    "facebook": "https://www.facebook.com/",
    "twitter": "https://www.twitter.com/",
    "location": "https://maps.google.com/",
    "phoneNumber": "tel:+18475555555",
    "whatsapp": "https://wa.me/552196312XXXX"
  },
  {
    "name": "hospital seven name",
    "imageUrl": "../Data/un-used-Images/IMG_20221204_221524_882.jpg",
    "description": "Lorem ipsum dolor, sit amet consectetur adipisicing elit. Placeat vel molestias minus vitae numquam eveniet? Minus libero itaque quibusdam tempore eligendi quos, voluptas voluptatum rem ducimus harum facere a vitae!",
    "phone": "+12353245",
    "mail": "monsfd@gmail.com",
    "address": "Sit Molestiae Vitae Nam.",
    "facebook": "https://www.facebook.com/",
    "twitter": "https://www.twitter.com/",
    "location": "https://maps.google.com/",
    "phoneNumber": "tel:+18475555555",
    "whatsapp": "https://wa.me/552196312XXXX"
  },
  {
    "name": "hospital eight name",
    "imageUrl": "../Data/un-used-Images/IMG_20221204_221446_131.jpg",
    "description": "Lorem ipsum dolor, sit amet consectetur adipisicing elit. Placeat vel molestias minus vitae numquam eveniet? Minus libero itaque quibusdam tempore eligendi quos, voluptas voluptatum rem ducimus harum facere a vitae!",
    "phone": "+12353245",
    "mail": "monsfd@gmail.com",
    "address": "Sit Molestiae Vitae Nam.",
    "facebook": "https://www.facebook.com/",
    "twitter": "https://www.twitter.com/",
    "location": "https://maps.google.com/",
    "phoneNumber": "tel:+18475555555",
    "whatsapp": "https://wa.me/552196312XXXX"
  },
  {
    "name": "hospital nine name",
    "imageUrl": "../Data/un-used-Images/IMG_20221204_221446_842.jpg",
    "description": "Lorem ipsum dolor, sit amet consectetur adipisicing elit. Placeat vel molestias minus vitae numquam eveniet? Minus libero itaque quibusdam tempore eligendi quos, voluptas voluptatum rem ducimus harum facere a vitae!",
    "phone": "+12353245",
    "mail": "monsfd@gmail.com",
    "address": "Sit Molestiae Vitae Nam.",
    "facebook": "https://www.facebook.com/",
    "twitter": "https://www.twitter.com/",
    "location": "https://maps.google.com/",
    "phoneNumber": "tel:+18475555555",
    "whatsapp": "https://wa.me/552196312XXXX"
  },
  {
    "name": "hospital ten name",
    "imageUrl": "../Data/un-used-Images/IMG_20221204_221528_346.jpg",
    "description": "Lorem ipsum dolor, sit amet consectetur adipisicing elit. Placeat vel molestias minus vitae numquam eveniet? Minus libero itaque quibusdam tempore eligendi quos, voluptas voluptatum rem ducimus harum facere a vitae!",
    "phone": "+12353245",
    "mail": "monsfd@gmail.com",
    "address": "Sit Molestiae Vitae Nam.",
    "facebook": "https://www.facebook.com/",
    "twitter": "https://www.twitter.com/",
    "location": "https://maps.google.com/",
    "phoneNumber": "tel:+18475555555",
    "whatsapp": "https://wa.me/552196312XXXX"
  },
  {
    "name": "hospital one one name",
    "imageUrl": "../Data/un-used-Images/IMG_20221204_221534_192.jpg",
    "description": "Lorem ipsum dolor, sit amet consectetur adipisicing elit. Placeat vel molestias minus vitae numquam eveniet? Minus libero itaque quibusdam tempore eligendi quos, voluptas voluptatum rem ducimus harum facere a vitae!",
    "phone": "+12353245",
    "mail": "monsfd@gmail.com",
    "address": "Sit Molestiae Vitae Nam.",
    "facebook": "https://www.facebook.com/",
    "twitter": "https://www.twitter.com/",
    "location": "https://maps.google.com/",
    "phoneNumber": "tel:+18475555555",
    "whatsapp": "https://wa.me/552196312XXXX"
  }
]
